{
   "type": "FeatureCollection",
   "features": [
  {
    "type": "Feature",
    "geometry": {
       "type": "Point",
       "coordinates":  [ 121.5772592,25.0498337 ]
    },
    "properties": {
    "戶所名稱":"臺北市松山區戶政事務所",
    "電話":"02-27533043",
    "傳真":"02-27645292",
    "電子信箱":"web02300@mail.taipei.gov.tw",
    "地址":"105212 臺北市松山區八德路4段692號4樓",
    "處理案件數":3530
    }
  },
  {
    "type": "Feature",
    "geometry": {
       "type": "Point",
       "coordinates":  [ 121.5821688,25.0378141 ]
    },
    "properties": {
    "戶所名稱":"臺北市信義區戶政事務所",
    "電話":"02-27233977",
    "傳真":"02-27224692",
    "電子信箱":"web02310@mail.taipei.gov.tw",
    "地址":"110038 臺北市信義區福德街86號6樓",
    "處理案件數":3359
    }
  },
  {
    "type": "Feature",
    "geometry": {
       "type": "Point",
       "coordinates":  [ 121.5344133,25.0265351 ]
    },
    "properties": {
    "戶所名稱":"臺北市大安區戶政事務所",
    "電話":"02-23587877",
    "傳真":"02-23587696",
    "電子信箱":"web02320@mail.taipei.gov.tw",
    "地址":"106205 臺北市大安區新生南路2段86號1樓",
    "處理案件數":5099
    }
  },
  {
    "type": "Feature",
    "geometry": {
       "type": "Point",
       "coordinates":  [ 121.533568,25.064444 ]
    },
    "properties": {
    "戶所名稱":"臺北市中山區戶政事務所",
    "電話":"02-25032461",
    "傳真":"02-25015804",
    "電子信箱":"web02330@mail.taipei.gov.tw",
    "地址":"104257 臺北市中山區松江路367號2樓",
    "處理案件數":4200
    }
  },
  {
    "type": "Feature",
    "geometry": {
       "type": "Point",
       "coordinates":  [ 121.5216527,25.0452974 ]
    },
    "properties": {
    "戶所名稱":"臺北市中正區戶政事務所",
    "電話":"02-23948838",
    "傳真":"02-23942540",
    "電子信箱":"web02340@mail.taipei.gov.tw",
    "地址":"100024 臺北市中正區忠孝東路1段108號7樓",
    "處理案件數":2778
    }
  },
  {
    "type": "Feature",
    "geometry": {
       "type": "Point",
       "coordinates":  [ 121.5151194,25.06606 ]
    },
    "properties": {
    "戶所名稱":"臺北市大同區戶政事務所",
    "電話":"02-25942569",
    "傳真":"02-25862975",
    "電子信箱":"web02350@mail.taipei.gov.tw",
    "地址":"103226 臺北市大同區昌吉街57號3樓之1",
    "處理案件數":1938
    }
  },
  {
    "type": "Feature",
    "geometry": {
       "type": "Point",
       "coordinates":  [ 121.4998885,25.0349881 ]
    },
    "properties": {
    "戶所名稱":"臺北市萬華區戶政事務所",
    "電話":"02-23062706",
    "傳真":"02-23082868",
    "電子信箱":"web02360@mail.taipei.gov.tw",
    "地址":"108220 臺北市萬華區和平西路3段120號4樓",
    "處理案件數":3420
    }
  },
  {
    "type": "Feature",
    "geometry": {
       "type": "Point",
       "coordinates":  [ 121.5700826,24.98964 ]
    },
    "properties": {
    "戶所名稱":"臺北市文山區戶政事務所",
    "電話":"02-29395885",
    "傳真":"02-29364284",
    "電子信箱":"web02380@mail.taipei.gov.tw",
    "地址":"116008 臺北市文山區木柵路3段220號2樓",
    "處理案件數":3466
    }
  },
  {
    "type": "Feature",
    "geometry": {
       "type": "Point",
       "coordinates":  [ 121.613465,25.056454 ]
    },
    "properties": {
    "戶所名稱":"臺北市南港區戶政事務所",
    "電話":"02-27825196",
    "傳真":"02-27888675",
    "電子信箱":"web02400@mail.taipei.gov.tw",
    "地址":"115203 臺北市南港區南港路1段360號4樓",
    "處理案件數":2154
    }
  },
  {
    "type": "Feature",
    "geometry": {
       "type": "Point",
       "coordinates":  [ 121.5890863,25.0693188 ]
    },
    "properties": {
    "戶所名稱":"臺北市內湖區戶政事務所",
    "電話":"02-27912277",
    "傳真":"02-27945743",
    "電子信箱":"web02410@mail.taipei.gov.tw",
    "地址":"114020 臺北市內湖區民權東路6段99號3樓",
    "處理案件數":2898
    }
  },
  {
    "type": "Feature",
    "geometry": {
       "type": "Point",
       "coordinates":  [ 121.5195677,25.0927516 ]
    },
    "properties": {
    "戶所名稱":"臺北市士林區戶政事務所",
    "電話":"02-28803252",
    "傳真":"02-28830534",
    "電子信箱":"web02420@mail.taipei.gov.tw",
    "地址":"111013 臺北市士林區中正路439號3樓",
    "處理案件數":4645
    }
  },
  {
    "type": "Feature",
    "geometry": {
       "type": "Point",
       "coordinates":  [ 121.5032687,25.1320152 ]
    },
    "properties": {
    "戶所名稱":"臺北市北投區戶政事務所",
    "電話":"02-28924170",
    "傳真":"02-28952936",
    "電子信箱":"web02430@mail.taipei.gov.tw",
    "地址":"112203 臺北市北投區新市街30號3樓",
    "處理案件數":4580
    }
  }
]
}